City_ID,City,Lat,Lng,Max Temp,Humidity,Cloudiness,Wind Speed,Country,Date
0,chokurdakh,70.6333,147.9167,-40.14,100,91,5.91,RU,1674330771
1,meulaboh,4.1363,96.1285,73.51,90,99,3.51,ID,1674330771
2,bambous virieux,-20.3428,57.7575,77.25,88,40,3.44,MU,1674330772
3,qaanaaq,77.484,-69.3632,-29.9,61,39,7.47,GL,1674330772
4,halifax,44.6453,-63.5724,29.5,80,94,10.0,CA,1674330600
5,puerto ayora,-0.7393,-90.3518,82.36,92,21,7.0,EC,1674330773
6,uarini,-2.99,-65.1083,85.46,66,30,4.52,BR,1674330773
7,berlevag,70.8578,29.0864,30.2,74,100,16.11,NO,1674330773
8,galveston,29.3669,-94.9669,55.96,91,100,5.01,US,1674330774
9,glendive,47.1053,-104.7125,36.48,69,0,10.36,US,1674330774
10,bredasdorp,-34.5322,20.0403,67.21,77,2,5.26,ZA,1674330774
11,esperance,-33.8667,121.9,61.18,76,3,16.42,AU,1674330775
12,imbituba,-28.24,-48.6703,76.14,87,100,11.54,BR,1674330775
13,mabaruma,8.2,-59.7833,71.06,99,100,5.97,GY,1674330775
14,ribeira grande,38.5167,-28.7,63.0,88,20,7.0,PT,1674330776
15,albany,42.6001,-73.9662,33.17,77,98,3.0,US,1674330776
16,jamestown,42.097,-79.2353,32.02,68,100,9.22,US,1674330692
17,thinadhoo,0.5333,72.9333,80.71,72,91,15.19,MV,1674330776
18,ahipara,-35.1667,173.1667,69.04,79,5,2.04,NZ,1674330777
19,guerrero negro,27.9769,-114.0611,62.58,33,4,5.59,MX,1674330670
20,punta arenas,-53.15,-70.9167,62.71,39,0,24.16,CL,1674330777
21,barrow,71.2906,-156.7887,-2.18,78,100,9.22,US,1674330778
22,kampong cham,11.9934,105.4635,72.43,77,100,7.18,KH,1674330778
23,puerto escondido,15.85,-97.0667,84.11,54,5,9.4,MX,1674330778
24,caravelas,-17.7125,-39.2481,81.1,76,100,7.7,BR,1674330779
25,ushuaia,-54.8,-68.3,58.62,71,75,12.66,AR,1674330704
26,nanortalik,60.1432,-45.2371,11.1,65,0,21.79,GL,1674330779
27,cape town,-33.9258,18.4232,72.37,62,0,3.44,ZA,1674330780
28,mar del plata,-38.0023,-57.5575,83.82,72,75,16.11,AR,1674330686
29,saskylakh,71.9167,114.0833,-36.72,97,65,3.44,RU,1674330780
30,saint george,37.1041,-113.5841,42.44,48,0,5.75,US,1674330597
31,los llanos de aridane,28.6585,-17.9182,62.13,63,40,18.99,ES,1674330781
32,sitka,57.0531,-135.33,37.76,98,100,9.6,US,1674330781
33,hermanus,-34.4187,19.2345,65.8,87,0,8.95,ZA,1674330781
34,ancud,-41.8697,-73.8203,59.94,93,100,8.55,CL,1674330782
35,khatanga,71.9667,102.5,-40.31,94,19,3.22,RU,1674330782
36,isangel,-19.55,169.2667,80.71,89,75,3.44,VU,1674330782
37,pevek,69.7008,170.3133,-32.39,100,100,4.7,RU,1674330783
38,chuy,-33.6971,-53.4616,74.1,93,99,2.37,UY,1674330783
39,goure,13.9835,10.2704,71.4,13,0,7.63,NE,1674330784
40,xocali,39.913,46.7903,37.24,90,100,1.48,AZ,1674330784
41,chinsali,-10.5414,32.0816,60.66,97,100,1.97,ZM,1674330784
42,tasiilaq,65.6145,-37.6368,-1.35,81,100,13.6,GL,1674330785
43,bluff,-46.6,168.3333,54.01,68,68,14.16,NZ,1674330785
44,victoria,22.2855,114.1577,64.26,84,100,5.01,HK,1674330783
45,new norfolk,-42.7826,147.0587,58.5,88,98,1.3,AU,1674330785
46,faya,18.3851,42.4509,55.51,79,19,2.17,SA,1674330786
47,kabare,-2.4683,28.8242,59.49,95,100,2.84,CD,1674330786
48,fuerte olimpo,-21.0415,-57.8738,97.95,31,83,8.59,PY,1674330786
49,rikitea,-23.1203,-134.9692,79.05,75,15,20.04,PF,1674330787
50,tuktoyaktuk,69.4541,-133.0374,-0.4,78,100,4.61,CA,1674330787
51,necochea,-38.5473,-58.7368,75.18,61,92,17.47,AR,1674330788
52,buin,-33.7333,-70.75,91.44,20,0,14.09,CL,1674330505
53,fallon,39.4735,-118.7774,31.1,68,0,0.0,US,1674330788
54,mahon,39.8885,4.2658,45.16,53,20,10.36,ES,1674330788
55,whitley bay,55.0397,-1.4471,32.2,88,0,3.44,GB,1674330789
56,kaitangata,-46.2817,169.8464,55.18,63,32,8.08,NZ,1674330789
57,ca mau,9.1769,105.15,75.81,83,89,5.32,VN,1674330790
58,nikolskoye,59.7035,30.7861,21.09,98,41,3.76,RU,1674330790
59,dikson,73.5069,80.5464,-5.21,93,100,29.68,RU,1674330790
60,san carlos de bariloche,-41.1456,-71.3082,72.25,42,40,19.57,AR,1674330791
61,talisayan,6.9872,121.9272,76.37,86,100,4.79,PH,1674330791
62,port blair,11.6667,92.75,78.84,78,40,4.61,IN,1674330792
63,thompson,55.7435,-97.8558,14.16,92,20,6.91,CA,1674330792
64,sorong,-0.8833,131.25,79.59,82,100,8.34,ID,1674330793
65,kropotkin,45.4375,40.5756,40.5,74,100,13.82,RU,1674330793
66,mocajuba,-2.5842,-49.5072,79.38,93,85,2.98,BR,1674330793
67,port-gentil,-0.7193,8.7815,82.36,78,20,6.91,GA,1674330794
68,east london,-33.0153,27.9116,76.33,92,87,9.48,ZA,1674330794
69,severo-kurilsk,50.6789,156.125,15.6,77,100,4.03,RU,1674330794
70,nouadhibou,20.931,-17.0347,66.18,68,2,17.27,MR,1674330795
71,egvekinot,66.3167,-179.1667,-33.57,92,13,4.59,RU,1674330795
72,altay,47.8667,88.1167,-11.79,72,17,7.16,CN,1674330795
73,victoria point,-27.5833,153.3,68.43,88,39,6.91,AU,1674330796
74,the valley,18.217,-63.0578,80.82,65,40,14.97,AI,1674330611
75,singaraja,-8.112,115.0882,78.42,84,59,4.0,ID,1674330755
76,avarua,-21.2078,-159.775,82.45,74,20,10.36,CK,1674330643
77,kargasok,59.0556,80.8572,-13.59,81,97,12.77,RU,1674330796
78,maniitsoq,65.4167,-52.9,-3.77,91,100,17.05,GL,1674330797
79,maracanau,-3.8767,-38.6256,82.06,74,20,10.36,BR,1674330797
80,lagoa,39.05,-27.9833,59.41,83,100,17.78,PT,1674330797
81,yulara,-25.2406,130.9889,73.65,26,2,11.25,AU,1674330798
82,muroto,33.2833,134.15,46.27,64,27,8.72,JP,1674330798
83,richards bay,-28.783,32.0377,75.67,88,3,11.39,ZA,1674330799
84,talaya,61.3833,152.75,-28.52,99,100,4.7,RU,1674330799
85,naze,28.3667,129.4833,58.12,70,54,11.88,JP,1674330799
86,mataura,-46.1927,168.8643,54.79,60,13,5.12,NZ,1674330800
87,lasa,46.6166,10.7002,18.34,93,96,8.25,IT,1674330800
88,green river,41.5286,-109.4662,15.98,68,93,3.0,US,1674330801
89,cherskiy,68.75,161.3,-40.27,100,100,5.79,RU,1674330801
90,lebu,-37.6167,-73.65,63.88,76,4,14.32,CL,1674330801
91,hobart,-42.8794,147.3294,58.86,94,75,5.75,AU,1674330511
92,takoradi,4.8845,-1.7554,81.1,80,77,11.65,GH,1674330802
93,busselton,-33.65,115.3333,77.13,44,67,11.07,AU,1674330802
94,yellowknife,62.456,-114.3525,9.12,92,100,11.99,CA,1674330798
95,atuona,-9.8,-139.0333,78.57,79,13,16.42,PF,1674330571
96,hit,33.6416,42.8251,54.64,59,0,0.67,IQ,1674330803
97,arraial do cabo,-22.9661,-42.0278,80.46,74,75,5.75,BR,1674330803
98,batagay-alyta,67.8006,130.4114,-28.14,79,94,4.34,RU,1674330804
99,chipinge,-20.1883,32.6236,66.4,72,100,4.25,ZW,1674330804
100,pisco,-13.7,-76.2167,77.05,69,0,9.22,PE,1674330804
101,juegang,32.3174,121.1855,43.99,94,100,16.02,CN,1674330805
102,jalu,29.0331,21.5482,56.08,48,0,7.94,LY,1674330805
103,vaini,-21.2,-175.2,82.56,89,20,5.75,TO,1674330806
104,bilibino,68.0546,166.4372,-46.62,99,62,2.51,RU,1674330806
105,sao filipe,14.8961,-24.4956,71.42,65,35,16.13,CV,1674330806
106,vung tau,10.346,107.0843,76.51,82,100,9.37,VN,1674330616
107,otradnoye,59.7775,30.8181,21.25,98,36,3.71,RU,1674330533
108,butaritari,3.0707,172.7902,82.13,71,100,14.43,KI,1674330807
109,turukhansk,65.8167,87.9833,-13.99,72,100,12.28,RU,1674330807
110,botwood,49.1499,-55.3482,26.91,88,100,16.73,CA,1674330808
111,marawi,7.9986,124.2928,67.06,94,100,1.52,PH,1674330808
112,itauna,-20.0753,-44.5764,69.01,94,100,7.05,BR,1674330626
113,haines junction,60.7522,-137.5108,25.3,94,100,4.36,CA,1674330809
114,torbay,47.6666,-52.7314,33.58,99,100,28.77,CA,1674330809
115,dunedin,-45.8742,170.5036,56.37,62,27,6.22,NZ,1674330809
116,cabo san lucas,22.8909,-109.9124,76.6,59,0,5.99,MX,1674330789
117,raudeberg,61.9875,5.1352,38.07,66,75,27.69,NO,1674330810
118,sangar,63.9242,127.4739,-56.02,99,100,0.45,RU,1674330810
119,ginda,30.6945,78.4932,35.44,32,0,9.19,IN,1674330810
120,port alfred,-33.5906,26.891,74.17,96,38,10.49,ZA,1674330811
121,souillac,-20.5167,57.5167,77.38,88,40,3.44,MU,1674330811
122,laguna,38.421,-121.4238,55.09,67,0,1.99,US,1674330746
123,les cayes,18.2,-73.75,81.88,54,0,10.83,HT,1674330812
124,mahebourg,-20.4081,57.7,77.29,88,40,3.44,MU,1674330812
125,port elizabeth,-33.918,25.5701,76.1,92,100,5.99,ZA,1674330813
126,cartagena,10.3997,-75.5144,89.22,58,20,11.5,CO,1674330813
127,kapaa,22.0752,-159.319,73.72,91,100,7.0,US,1674330616
128,leh,34.1667,77.5833,-0.47,70,16,3.51,IN,1674330813
129,seevetal,53.4,9.9667,34.32,86,100,9.22,DE,1674330814
130,chiang khong,20.2613,100.4046,57.04,72,0,1.68,TH,1674330814
131,san vicente,-26.6167,-54.1333,89.29,39,59,6.6,AR,1674330815
132,padang,-0.9492,100.3543,75.25,90,100,4.43,ID,1674330815
133,hithadhoo,-0.6,73.0833,81.14,64,12,13.62,MV,1674330815
134,carnarvon,-24.8667,113.6333,73.83,82,18,17.25,AU,1674330816
135,williston,48.147,-103.618,28.81,77,6,1.99,US,1674330482
136,buraydah,26.326,43.975,63.05,50,66,10.45,SA,1674330816
137,marzuq,14.4,46.4667,59.25,57,0,1.21,YE,1674330817
138,saint-philippe,-21.3585,55.7679,78.39,87,100,8.41,RE,1674330817
139,lata,40.1629,-8.3327,55.81,97,88,2.17,PT,1674330817
140,chapleau,47.8405,-83.4034,19.49,93,100,11.5,CA,1674330818
141,yeppoon,-23.1333,150.7333,69.58,81,33,8.57,AU,1674330818
142,windsor,42.3001,-83.0165,34.97,77,100,11.5,CA,1674330760
143,cortes,41.9395,-1.4396,39.25,68,21,21.32,ES,1674330818
144,gola gokarannath,28.0833,80.4667,54.86,65,0,6.91,IN,1674330819
145,mayumba,-3.432,10.6554,77.43,85,91,2.57,GA,1674330819
146,ladario,-19.0047,-57.6017,95.29,43,0,10.36,BR,1674330819
147,udachnyy,66.4167,112.4,-44.77,100,99,3.8,RU,1674330820
148,tygda,53.1167,126.3333,-43.71,95,24,4.54,RU,1674330820
149,salalah,17.0151,54.0924,69.1,54,0,4.94,OM,1674330820
150,kavaratti,10.5669,72.642,80.2,65,80,9.95,IN,1674330821
151,fiumicino,41.7675,12.2291,43.63,70,0,3.44,IT,1674330821
152,kaeo,-35.1,173.7833,69.31,76,16,1.54,NZ,1674330821
153,san patricio,28.017,-97.5169,62.91,82,100,10.25,US,1674330822
154,coahuayana,18.7333,-103.6833,85.96,48,0,7.2,MX,1674330822
155,clyde river,70.4692,-68.5914,-25.37,68,100,9.22,CA,1674330823
156,doha,25.2867,51.5333,64.38,74,0,4.61,QA,1674330823
157,cidreira,-30.1811,-50.2056,79.09,77,46,10.07,BR,1674330823
158,ulladulla,-35.35,150.4667,62.4,81,100,2.68,AU,1674330824
159,hilo,19.7297,-155.09,84.27,69,7,11.99,US,1674330824
160,geraldton,-28.7667,114.6,72.01,83,100,6.91,AU,1674330825
161,jatai,-17.8814,-51.7144,78.06,76,79,9.26,BR,1674330825
162,san angelo,31.4638,-100.437,63.95,21,0,13.0,US,1674330661
163,lamu,-2.2717,40.902,80.82,87,100,16.49,KE,1674330825
164,nabire,-3.3667,135.4833,74.12,92,100,3.51,ID,1674330826
165,churapcha,62.0025,132.4325,-61.96,100,96,3.85,RU,1674330826
166,hambantota,6.1241,81.1185,75.22,78,77,11.72,LK,1674330826
167,tymovskoye,50.8456,142.655,-9.51,95,100,15.84,RU,1674330827
168,inhambane,-23.865,35.3833,80.58,78,40,0.0,MZ,1674330827
169,namibe,-15.1961,12.1522,72.12,82,100,4.79,AO,1674330827
170,bathsheba,13.2167,-59.5167,83.01,65,40,21.85,BB,1674330828
171,mantua,45.1667,10.7833,40.24,86,100,2.39,IT,1674330828
172,evensk,61.95,159.2333,-19.39,74,38,14.18,RU,1674330829
173,kazachinskoye,57.6953,93.2761,-48.73,100,55,0.96,RU,1674330829
174,dongsheng,39.8161,109.9776,10.49,66,100,7.65,CN,1674330830
175,mastic beach,40.7668,-72.8521,40.53,66,100,7.0,US,1674330830
176,buala,-8.145,159.5921,80.71,77,100,6.49,SB,1674330830
177,acapulco,16.8634,-99.8901,84.51,49,3,7.29,MX,1674330722
178,camacha,33.0833,-16.3333,60.22,77,40,17.27,PT,1674330831
179,kilindoni,-7.9139,39.6668,81.77,83,100,14.7,TZ,1674330831
180,nisia floresta,-6.0911,-35.2086,85.01,69,20,11.81,BR,1674330831
181,general nakar,14.7631,121.635,75.2,91,43,12.1,PH,1674330832
182,tilichiki,60.4667,166.1,-20.43,88,100,14.29,RU,1674330832
183,loandjili,-4.7561,11.8578,80.71,83,20,4.61,CG,1674330833
184,malayal,7.208,121.942,76.5,85,78,4.88,PH,1674330833
185,kandrian,-6.2167,149.55,77.22,87,100,3.87,PG,1674330833
186,tiksi,71.6872,128.8694,-24.23,97,98,3.67,RU,1674330834
187,bjornevatn,69.6672,29.9847,24.42,85,100,8.05,NO,1674330834
188,elko,41.0002,-115.5012,11.73,83,99,1.01,US,1674330835
189,saint-pierre,-21.3393,55.4781,78.48,83,0,5.75,RE,1674330835
190,kruisfontein,-34.0033,24.7314,73.89,88,100,5.57,ZA,1674330835
191,vila franca do campo,37.7167,-25.4333,59.41,73,53,5.99,PT,1674330836
192,honiara,-9.4333,159.95,76.62,84,100,4.23,SB,1674330760
193,hasaki,35.7333,140.8333,36.21,57,100,9.53,JP,1674330836
194,kwekwe,-18.9281,29.8149,64.99,95,100,5.35,ZW,1674330837
195,puerto narino,-3.7703,-70.3831,79.88,90,45,2.8,CO,1674330837
196,pauini,-7.7136,-66.9764,83.44,65,87,1.92,BR,1674330838
197,sambava,-14.2667,50.1667,74.7,91,100,4.29,MG,1674330838
198,tuatapere,-46.1333,167.6833,55.24,57,60,7.56,NZ,1674330838
199,bethel,41.3712,-73.414,39.02,66,100,8.05,US,1674330839
200,tautira,-17.7333,-149.15,79.14,69,95,1.52,PF,1674330839
201,seoul,37.5683,126.9778,29.64,56,0,6.91,KR,1674330819
202,portland,45.5234,-122.6762,37.38,94,100,6.91,US,1674330706
203,luderitz,-26.6481,15.1594,65.52,79,8,17.6,NA,1674330840
204,landshut,48.5333,12.15,29.79,92,99,1.99,DE,1674330840
205,mahina,-17.5065,-149.489,82.17,69,75,3.44,PF,1674330840
206,yeniseysk,58.4497,92.1703,-50.03,100,54,1.28,RU,1674330840
207,kodiak,57.79,-152.4072,26.26,70,43,7.83,US,1674330841
208,nemuro,43.3236,145.575,17.96,61,26,25.01,JP,1674330841
209,karpathos,35.507,27.2132,60.76,67,7,11.5,GR,1674330842
210,nuevo casas grandes,30.4167,-107.9167,45.75,33,0,8.01,MX,1674330842
211,starosubkhangulovo,53.1031,57.4423,4.28,93,44,1.12,RU,1674330843
212,college,64.8569,-147.8028,7.12,81,20,0.0,US,1674330788
213,lexington,37.9887,-84.4777,43.34,57,0,1.99,US,1674330639
214,hay river,60.8156,-115.7999,22.98,93,75,5.75,CA,1674330837
215,salym,60.0625,71.4789,19.62,94,100,9.26,RU,1674330843
216,kununurra,-15.7667,128.7333,80.58,94,100,0.0,AU,1674330844
217,ilhabela,-23.7781,-45.3581,80.04,72,22,4.03,BR,1674330844
218,fortuna,40.5982,-124.1573,54.93,65,0,3.0,US,1674330845
219,asau,46.4333,26.4,34.72,80,75,1.68,RO,1674330845
220,rocha,-34.4833,-54.3333,82.4,64,100,12.48,UY,1674330845
221,ostrovnoy,68.0531,39.5131,17.85,90,7,12.37,RU,1674330846
222,upernavik,72.7868,-56.1549,-21.86,94,99,6.44,GL,1674330846
223,lavrentiya,65.5833,-171.0,-26.77,92,6,4.5,RU,1674330847
224,gizo,-8.103,156.8419,81.73,76,100,6.8,SB,1674330847
225,revda,56.801,59.9303,18.61,67,100,13.18,RU,1674330847
226,boquira,-12.8231,-42.7306,73.15,85,100,1.34,BR,1674330848
227,spokane,47.6166,-117.3677,37.47,85,40,5.75,US,1674330613
228,goderich,43.7501,-81.7165,32.92,80,100,10.36,CA,1674330605
229,general roca,-39.0333,-67.5833,91.62,18,19,21.25,AR,1674330849
230,san policarpo,12.1791,125.5072,79.05,84,95,19.13,PH,1674330849
231,husavik,66.0449,-17.3389,29.79,93,100,6.76,IS,1674330849
232,pahalgam,34.0333,75.3333,23.56,91,100,5.93,IN,1674330850
233,mehamn,71.0357,27.8492,30.15,80,100,14.97,NO,1674330850
234,san borja,-14.8167,-66.85,91.83,46,14,7.99,BO,1674330850
235,takaungu,-3.6837,39.8566,78.8,89,100,11.25,KE,1674330851
236,iqaluit,63.7506,-68.5145,11.93,85,100,5.75,CA,1674330851
237,port macquarie,-31.4333,152.9167,61.9,80,99,3.85,AU,1674330852
238,fort pierce,27.4467,-80.3256,80.08,79,100,5.75,US,1674330522
239,sernovodsk,43.3117,45.1594,32.56,86,16,2.93,RU,1674330852
240,georgetown,5.4112,100.3354,76.95,99,20,0.0,MY,1674330632
241,kolosovka,56.4678,73.611,10.08,95,100,13.85,RU,1674330852
242,leningradskiy,69.3833,178.4167,-37.68,95,24,5.08,RU,1674330853
243,provideniya,64.3833,-173.3,-19.39,85,9,5.77,RU,1674330853
244,grindavik,63.8424,-22.4338,35.55,86,75,13.8,IS,1674330854
245,homer,59.6425,-151.5483,21.52,85,52,5.77,US,1674330811
246,ginir,7.1333,40.7,59.52,44,60,3.15,ET,1674330854
247,mandalgovi,45.7625,106.2708,-2.94,75,100,13.56,MN,1674330855
248,puerto ayacucho,5.6639,-67.6236,89.69,44,79,3.76,VE,1674330855
249,alofi,-19.0595,-169.9187,80.49,89,61,9.22,NU,1674330855
250,shimsk,58.212,30.7127,24.15,95,99,9.53,RU,1674330856
251,fort walton beach,30.4058,-86.6188,60.82,59,100,8.05,US,1674330623
252,coihaique,-45.5752,-72.0662,68.61,56,75,8.05,CL,1674330856
253,santa maria del oro,25.9333,-105.3667,73.38,5,0,18.57,MX,1674330857
254,toro,4.6117,-76.0814,83.08,74,99,3.04,CO,1674330857
255,hoquiam,46.9809,-123.8893,45.93,92,100,19.57,US,1674330582
256,inta,66.0317,60.1659,25.79,96,100,13.15,RU,1674330857
257,lagos,6.5833,3.75,84.52,82,5,6.89,NG,1674330412
258,bhainsdehi,21.6467,77.6325,63.36,53,0,4.56,IN,1674330858
259,baoro,5.6667,15.9667,75.69,22,100,5.59,CF,1674330858
260,constitucion,-35.3333,-72.4167,68.38,63,17,16.8,CL,1674330860
261,severnyy,50.677,36.5532,28.44,93,100,11.18,RU,1674330860
262,davila,18.4726,120.5763,74.98,75,100,5.17,PH,1674330860
263,sakhnovshchyna,49.1517,35.872,30.47,90,100,8.88,UA,1674330861
264,santo antonio do sudoeste,-26.0736,-53.7253,86.14,46,89,3.04,BR,1674330861
265,praia da vitoria,38.7333,-27.0667,60.76,77,40,12.1,PT,1674330623
266,russell,32.3502,-85.1999,52.88,54,75,0.0,US,1674330862
267,mitu,1.1983,-70.1733,85.73,53,42,3.58,CO,1674330862
268,bundaberg,-24.85,152.35,67.21,96,29,1.99,AU,1674330863
269,nova prata,-28.7839,-51.61,67.59,98,100,2.39,BR,1674330863
270,paracuru,-3.41,-39.0306,81.1,76,22,9.78,BR,1674330863
271,saurimo,-9.6608,20.3916,64.08,97,100,4.23,AO,1674330864
272,iralaya,15.0,-83.2333,79.56,76,13,12.55,HN,1674330864
273,karratha,-20.7377,116.8463,81.41,69,52,3.2,AU,1674330864
274,lolodorf,3.2333,10.7333,72.84,90,100,1.99,CM,1674330865
275,roald,62.5833,6.1333,44.74,33,0,17.27,NO,1674330865
276,nagato,34.3833,131.2,38.19,61,46,4.18,JP,1674330865
277,soyo,-6.1349,12.3689,79.09,83,71,6.71,AO,1674330866
278,vrangel,42.7297,133.0839,12.72,80,100,6.06,RU,1674330866
279,nome,64.5011,-165.4064,-25.62,97,30,6.42,US,1674330867
280,zalantun,48.0,122.7167,-20.79,97,98,4.45,CN,1674330867
281,lompoc,34.6391,-120.4579,62.02,54,0,8.99,US,1674330730
282,jilib,0.4883,42.7854,79.18,75,43,13.65,SO,1674330868
283,chipata,-13.6333,32.65,62.83,99,100,1.72,ZM,1674330868
284,itarema,-2.9248,-39.9167,81.18,73,4,11.3,BR,1674330868
285,baker city,44.7749,-117.8344,28.58,84,14,7.85,US,1674330790
286,broken hill,-31.95,141.4333,64.51,71,0,11.41,AU,1674330869
287,chivay,-15.6383,-71.6011,57.29,63,83,7.29,PE,1674330869
288,rawson,-43.3002,-65.1023,69.55,65,52,10.36,AR,1674330870
289,miandrivazo,-19.5167,45.4667,76.44,87,100,3.58,MG,1674330870
290,manicore,-5.8092,-61.3003,89.55,55,20,2.3,BR,1674330871
291,beyneu,45.3167,55.2,28.56,68,1,12.3,KZ,1674330871
292,searcy,35.2506,-91.7363,50.99,61,75,5.75,US,1674330689
293,galle,6.0367,80.217,77.04,74,74,3.29,LK,1674330871
294,sucua,-2.4667,-78.1667,79.54,57,75,9.22,EC,1674330872
295,saint-francois,46.4154,3.9054,33.24,75,100,12.66,FR,1674330872
296,ixtapa,20.7,-105.2,83.44,46,1,7.83,MX,1674330873
297,wladyslawowo,54.7909,18.4009,38.55,90,100,23.47,PL,1674330873
298,kyren,51.6828,102.1408,-23.4,97,99,1.01,RU,1674330873
299,iracoubo,5.4802,-53.2011,76.86,90,96,12.28,GF,1674330874
300,lorengau,-2.0226,147.2712,80.01,81,100,1.25,PG,1674330874
301,grants,35.1473,-107.8514,32.23,51,0,16.11,US,1674330874
302,svetlogorsk,52.6333,29.7333,33.44,82,100,6.22,BY,1674330874
303,kavieng,-2.5744,150.7967,81.34,78,100,4.25,PG,1674330875
304,ampanihy,-24.7,44.75,75.56,83,91,12.55,MG,1674330875
305,nago,26.5881,127.9761,64.83,70,36,14.07,JP,1674330876
306,sur,22.5667,59.5289,65.73,63,11,4.7,OM,1674330876
307,chumikan,54.7183,135.315,-20.72,87,99,16.42,RU,1674330877
308,ponta do sol,32.6667,-17.1,65.71,78,44,6.71,PT,1674330877
309,abdulino,53.7,53.6667,0.61,88,87,4.63,RU,1674330878
310,tukrah,32.5341,20.5791,54.37,54,0,11.92,LY,1674330878
311,hearst,49.6835,-83.6665,17.85,90,100,8.81,CA,1674330722
312,linjiang,41.8069,126.9078,4.5,99,95,1.74,CN,1674330879
313,arona,28.0996,-16.681,60.12,61,20,25.32,ES,1674330879
314,omsukchan,62.5333,155.8,-39.6,100,100,4.85,RU,1674330879
315,novyy buh,47.6931,32.5216,39.29,92,0,8.63,UA,1674330880
316,canyon lake,29.8752,-98.2625,64.92,74,100,4.0,US,1674330880
317,wad madani,14.4012,33.5199,76.75,18,0,10.98,SD,1674330881
318,mezen,65.8522,44.24,26.4,94,100,8.43,RU,1674330881
319,beaverlodge,55.2166,-119.4361,33.15,100,100,3.78,CA,1674330882
320,vestmannaeyjar,63.4427,-20.2734,41.59,62,100,19.33,IS,1674330883
321,atar,20.5169,-13.0499,71.91,20,0,10.56,MR,1674330883
322,kralendijk,12.15,-68.2667,82.38,65,40,18.41,BQ,1674330883
323,coquimbo,-29.9533,-71.3436,69.53,64,40,12.66,CL,1674330884
324,pilar,-9.5972,-35.9567,82.33,65,2,12.88,BR,1674330884
325,ossora,59.2353,163.0719,-5.17,86,100,10.09,RU,1674330884
326,noumea,-22.2763,166.4572,79.0,99,70,8.5,NC,1674330885
327,sistranda,63.7256,8.834,37.36,54,97,10.65,NO,1674330885
328,vikhorevka,56.1201,101.1636,-45.81,100,64,2.64,RU,1674330886
329,shenkursk,62.1091,42.896,14.79,98,100,2.28,RU,1674330886
330,durango,24.8333,-104.8333,70.38,7,0,14.7,MX,1674330886
331,vigia del fuerte,6.5789,-76.8863,81.91,82,35,0.87,CO,1674330887
332,la guama,14.8833,-87.9333,84.49,37,5,4.16,HN,1674330887
333,amudat,1.95,34.95,72.9,30,55,6.89,UG,1674330888
334,pitea,65.3172,21.4794,5.09,96,84,3.31,SE,1674330888
335,mashhad,36.297,59.6062,28.54,74,0,6.91,IR,1674330790
336,fort-shevchenko,44.5086,50.263,34.3,61,0,20.07,KZ,1674330888
337,tessalit,20.1986,1.0114,73.96,12,0,6.91,ML,1674330889
338,salamiyah,35.0113,37.0532,50.23,61,0,5.3,SY,1674330889
339,kahului,20.8947,-156.47,78.84,72,0,8.01,US,1674330890
340,pimenta bueno,-11.6725,-61.1936,80.37,87,90,5.1,BR,1674330890
341,naifaru,5.4444,73.3657,79.43,69,98,10.4,MV,1674330890
342,veracruz,19.3333,-96.6667,84.38,44,94,6.69,MX,1674330891
343,mbandaka,0.0487,18.2603,73.4,84,100,3.15,CD,1674330891
344,skjervoy,70.0311,20.9714,33.8,62,100,15.68,NO,1674330891
345,te anau,-45.4167,167.7167,52.97,63,7,4.21,NZ,1674330892
346,ilulissat,69.2167,-51.1,-25.35,96,83,8.72,GL,1674330892
347,lokosovo,61.1333,74.8167,10.85,93,100,15.79,RU,1674330893
348,inirida,3.8653,-67.9239,88.5,50,51,0.31,CO,1674330893
349,batemans bay,-35.7167,150.1833,63.1,82,100,2.91,AU,1674330893
350,namatanai,-3.6667,152.4333,79.05,83,100,2.15,PG,1674330894
351,shimoda,34.6667,138.95,37.11,63,96,8.59,JP,1674330894
352,chifeng,42.2683,118.9636,11.46,62,100,3.38,CN,1674330894
353,margate,51.3813,1.3862,39.69,85,69,1.99,GB,1674330895
354,shelburne,44.0787,-80.2041,28.85,93,100,8.61,CA,1674330895
355,zhezkazgan,47.8043,67.7144,2.03,82,3,7.92,KZ,1674330895
356,grand gaube,-20.0064,57.6608,77.4,82,99,7.85,MU,1674330896
357,canaries,28.0,-15.5,59.4,72,20,18.41,ES,1674330896
358,ruteng,-8.6136,120.4721,60.55,84,98,1.14,ID,1674330896
359,along,28.1667,94.7667,48.38,76,31,1.97,IN,1674330897
360,sheksna,59.21,38.5107,31.96,99,100,2.26,RU,1674330897
361,khilok,51.3674,110.4676,-24.99,100,100,2.77,RU,1674330897
362,bakchar,57.0186,82.0711,-28.46,93,23,4.43,RU,1674330898
363,pyapon,16.2833,95.6833,67.23,60,0,6.85,MM,1674330898
364,xuddur,4.1213,43.8894,80.26,50,100,19.75,SO,1674330899
365,vila,42.0304,-8.1588,41.88,85,91,5.01,PT,1674330899
366,abha,18.2164,42.5053,55.22,88,0,10.36,SA,1674330899
367,rio verde de mato grosso,-18.9181,-54.8442,83.84,69,45,6.04,BR,1674330900
368,nueve de julio,-35.4444,-60.8831,91.06,24,0,14.61,AR,1674330900
369,yarmouth,41.7057,-70.2286,36.09,80,100,18.01,US,1674330900
370,verkhoyansk,67.5447,133.385,-52.89,99,81,1.21,RU,1674330901
371,norman wells,65.282,-126.8329,-5.76,77,100,12.66,CA,1674330901
372,tshikapa,-6.4167,20.8,70.09,92,100,1.95,CD,1674330901
373,vryburg,-26.9566,24.7284,74.59,42,68,6.8,ZA,1674330901
374,olafsvik,64.8945,-23.7142,36.68,87,100,27.11,IS,1674330902
375,bubaque,11.2833,-15.8333,75.61,69,52,20.04,GW,1674330903
376,kieta,-6.2167,155.6333,78.66,81,100,1.95,PG,1674330903
377,bonthe,7.5264,-12.505,78.76,79,44,10.6,SL,1674330903
378,presidencia roque saenz pena,-26.7852,-60.4388,100.18,28,94,9.95,AR,1674330904
379,waitati,-45.75,170.5667,57.99,57,53,5.06,NZ,1674330904
380,castro,-24.7911,-50.0119,80.17,58,100,0.89,BR,1674330904
381,matara,5.9485,80.5353,74.53,80,73,0.63,LK,1674330905
382,yerbogachen,61.2767,108.0108,-55.84,100,65,1.66,RU,1674330905
383,mandurah,-32.55,115.7,78.06,42,0,7.9,AU,1674330906
384,aklavik,68.2191,-135.0107,-4.0,84,100,8.05,CA,1674330906
385,talnakh,69.4865,88.3972,-2.79,69,100,14.99,RU,1674330906
386,villa alemana,-33.0422,-71.3733,71.91,56,0,13.8,CL,1674330907
387,isla vista,34.4133,-119.861,64.78,55,0,3.0,US,1674330907
388,yabassi,4.457,9.9682,78.93,80,100,1.3,CM,1674330908
389,urumqi,43.801,87.6005,11.35,85,100,2.24,CN,1674330841
390,lincoln,40.8,-96.667,32.29,88,100,3.44,US,1674330908
391,paamiut,61.994,-49.6678,4.78,67,100,12.06,GL,1674330908
392,sinnamary,5.3833,-52.95,77.07,89,100,13.11,GF,1674330909
393,acarau,-2.8856,-40.12,81.37,73,10,12.44,BR,1674330909
394,manjacaze,-24.7117,33.8828,75.67,80,97,8.7,MZ,1674330910
395,sola,-13.8833,167.55,81.68,75,100,5.88,VU,1674330910
396,juneau,58.3019,-134.4197,40.21,89,100,13.8,US,1674330767
397,yamada,39.4667,141.95,27.79,61,72,4.05,JP,1674330911
398,akyab,20.15,92.9,64.2,64,0,7.63,MM,1674330911
399,waipawa,-41.4122,175.5153,61.09,75,3,7.16,NZ,1674330911
400,ust-nera,64.5667,143.2,-32.53,99,100,2.89,RU,1674330912
401,taltal,-25.4,-70.4833,69.87,72,13,5.93,CL,1674330912
402,faanui,-16.4833,-151.75,80.74,66,100,8.08,PF,1674330912
403,arenzano,44.4052,8.6832,44.33,40,0,10.36,IT,1674330913
404,bria,6.5423,21.9863,77.32,21,100,2.17,CF,1674330913
405,chapais,49.7834,-74.8492,11.98,89,100,6.49,CA,1674330913
406,mount isa,-20.7333,139.5,65.97,68,46,0.0,AU,1674330914
407,ullal,12.8,74.85,76.15,83,0,3.44,IN,1674330914
408,ankazobe,-18.3167,47.1167,62.56,98,100,5.17,MG,1674330914
409,dumai,1.6833,101.45,72.23,98,99,2.13,ID,1674330915
410,airai,-8.9266,125.4092,59.85,91,92,1.1,TL,1674330915
411,menongue,-14.6585,17.691,64.2,92,100,5.75,AO,1674330916
412,iranshahr,27.2025,60.6848,48.54,43,0,4.61,IR,1674330916
413,srednekolymsk,67.45,153.6833,-34.13,99,100,5.03,RU,1674330916
414,bodrum,37.0383,27.4292,58.48,65,5,10.13,TR,1674330807
415,prado,-17.3411,-39.2208,80.11,81,100,9.17,BR,1674330917
416,touros,-5.1989,-35.4608,81.7,72,14,13.78,BR,1674330917
417,shakhtinsk,49.71,72.5872,-9.36,100,99,1.48,KZ,1674330918
418,garmsar,35.2182,52.3409,40.64,47,16,6.29,IR,1674330918
419,yenagoa,4.9247,6.2642,81.48,73,18,8.08,NG,1674330918
420,champerico,14.3,-91.9167,93.74,61,4,10.45,GT,1674330919
421,hofn,64.2539,-15.2082,42.21,89,100,19.37,IS,1674330919
422,amli,20.2833,73.0167,64.35,41,6,3.04,IN,1674330920
423,salinas,36.6777,-121.6555,59.99,61,0,3.44,US,1674330783
424,daniel flores,9.3355,-83.6694,79.45,59,10,4.63,CR,1674330636
425,alamosa,37.4695,-105.87,19.76,65,45,3.2,US,1674330920
426,datong,40.0936,113.2914,10.29,83,84,2.26,CN,1674330921
427,sonda,59.3436,26.8364,24.98,97,53,6.2,EE,1674330921
428,calatayud,41.3535,-1.6432,34.25,73,7,9.8,ES,1674330922
429,ullapool,57.8987,-5.1604,39.94,94,93,9.91,GB,1674330922
430,oistins,13.0667,-59.5333,82.49,65,40,21.85,BB,1674330789
431,cayenne,4.9333,-52.3333,80.64,74,75,10.36,GF,1674330638
432,balkanabat,39.5108,54.3671,33.31,34,1,2.91,TM,1674330923
433,ryotsu,38.0833,138.4333,32.83,84,80,3.38,JP,1674330923
434,prince rupert,54.3161,-130.3201,42.49,92,40,10.36,CA,1674330924
435,havoysund,70.9963,24.6622,32.23,69,100,13.4,NO,1674330816
436,pontes e lacerda,-15.2261,-59.3353,86.7,59,94,3.74,BR,1674330924
437,labuhan,-6.8844,112.2051,73.45,89,100,5.7,ID,1674330924
438,santa cruz,-17.8,-63.1667,89.65,55,40,23.02,BO,1674330640
439,tarakan,3.3,117.6333,77.97,84,100,6.22,ID,1674330905
440,zhanaozen,43.3,52.8,28.92,70,0,11.9,KZ,1674330925
441,aniva,46.7144,142.5294,-9.29,93,94,5.35,RU,1674330925
442,bud,39.447,-86.1758,33.91,83,72,3.8,US,1674330926
443,kemijarvi,66.7131,27.4306,4.5,100,99,4.18,FI,1674330926
444,lovozero,68.005,35.0117,12.92,78,1,5.75,RU,1674330927
445,sindor,62.8629,51.8905,26.02,92,100,5.79,RU,1674330927
446,petauke,-14.2426,31.3253,63.45,98,100,2.91,ZM,1674330927
447,high prairie,55.4334,-116.4858,34.63,96,100,4.25,CA,1674330928
448,quatre cocos,-20.2078,57.7625,77.11,86,99,4.9,MU,1674330928
449,martapura,-3.4167,114.85,75.29,100,100,4.61,ID,1674330929
450,narsaq,60.9167,-46.05,-10.73,70,4,8.59,GL,1674330929
451,vila velha,-20.3297,-40.2925,78.75,96,100,4.61,BR,1674330929
452,guozhen,34.3659,107.359,34.56,72,100,1.77,CN,1674330930
453,jurm,36.8648,70.8342,21.04,80,100,0.85,AF,1674330930
454,lima,-12.0432,-77.0282,73.65,69,0,9.22,PE,1674330815
455,garowe,8.4054,48.4845,70.07,59,58,16.82,SO,1674330930
456,longyearbyen,78.2186,15.6401,22.84,74,20,5.75,SJ,1674330931
457,puerto colombia,10.9878,-74.9547,86.09,70,0,21.54,CO,1674330931
458,batagay,67.6333,134.6333,-52.74,97,75,3.51,RU,1674330932
459,swan river,52.1058,-101.2676,15.69,92,8,16.11,CA,1674330932
460,pulandian,39.3953,121.9669,22.64,87,83,6.53,CN,1674330933
461,san cristobal,7.7669,-72.225,78.98,39,6,6.87,VE,1674330862
462,keetmanshoop,-26.5833,18.1333,87.28,24,99,18.39,NA,1674330933
463,novikovo,51.1537,37.8879,27.19,79,100,11.21,RU,1674330933
464,vibo valentia,38.6996,16.1274,41.59,62,68,14.14,IT,1674330934
465,sakakah,29.9697,40.2064,58.57,61,3,9.89,SA,1674330934
466,turinsk,58.0458,63.696,23.38,75,90,12.41,RU,1674330935
467,petropavlovsk-kamchatskiy,53.0452,158.6483,-8.81,64,0,8.95,RU,1674330935
468,cabra,37.4725,-4.4421,48.65,87,7,6.2,ES,1674330936
469,mangla,31.8931,72.3817,48.16,62,2,4.14,PK,1674330936
470,celestun,20.8667,-90.4,82.15,55,52,6.33,MX,1674330936
471,atasu,48.6814,71.6433,-3.87,100,74,6.69,KZ,1674330937
472,yashan,22.1975,109.9419,63.23,88,100,4.76,CN,1674330937
473,princeton,25.5384,-80.4089,82.42,68,40,9.22,US,1674330663
474,havre-saint-pierre,50.2334,-63.5986,25.16,33,0,5.75,CA,1674330938
475,andilamena,-17.0167,48.5833,64.92,96,100,10.31,MG,1674330938
476,boyolangu,-8.1181,111.8935,74.43,91,96,3.49,ID,1674330938
477,jarvenpaa,60.4737,25.0899,24.69,95,100,8.05,FI,1674330939
478,sault sainte marie,46.5168,-84.3333,27.16,82,100,3.44,CA,1674330664
479,shingu,33.7333,135.9833,34.16,68,9,5.79,JP,1674330939
480,cockburn town,21.4612,-71.1419,80.56,65,40,11.5,TC,1674330786
481,letychiv,49.3826,27.6305,36.72,91,16,5.26,UA,1674330940
482,ormara,25.2088,64.6357,61.83,30,0,18.34,PK,1674330940
483,flin flon,54.7682,-101.865,15.64,92,100,5.75,CA,1674330940
484,north bend,43.4065,-124.2243,48.07,93,100,5.75,US,1674330642
485,chicama,-7.8447,-79.1469,70.34,56,21,11.88,PE,1674330941
486,nouakchott,18.0858,-15.9785,65.89,71,4,12.95,MR,1674330941
487,sao sebastiao do paraiso,-20.9169,-46.9914,70.2,93,100,7.96,BR,1674330650
488,roberval,48.5168,-72.2324,12.15,78,20,5.75,CA,1674330942
489,lakes entrance,-37.8811,147.981,60.17,88,100,6.42,AU,1674330942
490,floriano,-6.7669,-43.0225,85.59,56,99,4.81,BR,1674330942
491,umiray,15.2206,121.4111,76.17,89,91,15.95,PH,1674330943
492,port hardy,50.6996,-127.4199,39.38,100,100,5.75,CA,1674330943
493,dwarka,22.2394,68.9678,66.69,46,0,11.39,IN,1674330943
494,nuevo progreso,23.1667,-97.95,79.9,64,85,8.99,MX,1674330944
495,brooks,50.5834,-111.8851,39.18,68,13,4.61,CA,1674330944
496,samarai,-10.6167,150.6667,80.55,78,100,4.94,PG,1674330944
497,moree,-29.4667,149.85,69.78,62,76,14.61,AU,1674330945
498,mulchen,-37.7167,-72.2333,82.26,17,0,7.09,CL,1674330945
499,chapayevka,47.4711,36.3451,32.45,93,100,8.43,UA,1674330945
500,campo formoso,-10.5075,-40.3214,84.06,46,68,5.03,BR,1674330946
501,oranjemund,-28.55,16.4333,64.02,90,6,8.19,NA,1674330946
502,ramtek,21.4,79.3333,65.16,59,0,3.56,IN,1674330946
503,ulaangom,49.9811,92.0667,-11.83,68,12,7.54,MN,1674330947
504,penzance,50.1186,-5.5371,45.28,69,82,14.7,GB,1674330947
505,sungaipenuh,-2.0833,101.3833,62.89,96,97,2.15,ID,1674330947
506,bahraich,27.5833,81.6,55.0,67,0,7.54,IN,1674330948
507,kloulklubed,7.0419,134.2556,81.37,81,100,22.48,PW,1674330948
508,eberswalde,52.8349,13.8195,35.44,97,100,16.22,DE,1674330949
509,lashio,22.9333,97.75,47.82,64,9,1.68,MM,1674330949
510,mana,5.6592,-53.7767,77.59,87,21,10.45,GF,1674330949
511,teruel,40.6667,-0.6667,22.98,90,36,26.91,ES,1674330950
512,mount gambier,-37.8333,140.7667,60.78,76,100,9.48,AU,1674330950
513,pacific grove,36.6177,-121.9166,57.54,61,0,11.99,US,1674330950
514,san nicolas,18.1725,120.5953,73.65,76,100,5.28,PH,1674330951
515,hostotipaquillo,21.0667,-104.0667,82.27,20,0,5.59,MX,1674330951
516,tallahassee,30.4383,-84.2807,62.8,31,100,5.57,US,1674330858
517,marsa matruh,31.3525,27.2453,55.6,71,0,5.75,EG,1674330952
518,kamenka,51.3223,42.7678,22.17,81,100,13.44,RU,1674330952
519,domodossola,46.1165,8.2931,42.82,57,100,9.15,IT,1674330953
520,pemangkat,1.1667,108.9667,77.11,87,100,3.49,ID,1674330953
521,dabat,12.9842,37.765,56.23,38,2,1.21,ET,1674330953
522,briancon,44.9,6.65,26.62,87,56,3.24,FR,1674330801
523,rassvet,46.8333,40.75,32.74,84,100,17.96,RU,1674330954
524,tabou,4.423,-7.3528,80.19,79,6,9.4,CI,1674330954
525,mareeba,-17.0,145.4333,70.52,93,56,2.84,AU,1674330954
526,yar-sale,66.8333,70.8333,15.8,96,100,6.8,RU,1674330955
527,pavino,59.1139,46.1414,22.08,94,100,5.84,RU,1674330955
528,beringovskiy,63.05,179.3167,-20.85,93,100,9.86,RU,1674330956
529,tahe,52.3333,124.7333,-43.76,98,46,3.36,CN,1674330956
530,alberton,46.8168,-64.0654,28.31,66,89,16.4,CA,1674330956
531,joshimath,30.5667,79.5667,32.5,35,0,9.73,IN,1674330957
532,mayo,38.8876,-76.5119,43.52,57,100,6.91,US,1674330957
533,olinda,-8.0089,-34.8553,83.93,61,40,6.91,BR,1674330957
534,hirara,24.8,125.2833,68.85,75,100,19.06,JP,1674330958
535,harbour breton,47.4833,-55.7983,31.87,80,100,29.8,CA,1674330958
536,pesochnoye,58.006,39.1772,23.07,96,100,4.18,RU,1674330959
537,codrington,-38.2667,141.9667,57.25,93,7,8.97,AU,1674330959
538,shache,38.4167,77.2406,4.57,87,4,3.6,CN,1674330960
539,wagar,16.1525,36.2032,78.3,50,0,9.37,SD,1674330960
540,chalus,36.655,51.4204,42.26,70,20,0.0,IR,1674330960
541,sibu,2.3,111.8167,73.71,100,40,0.0,MY,1674330961
542,winnemucca,40.973,-117.7357,30.56,58,4,4.12,US,1674330961
543,wanaka,-44.7,169.15,58.1,64,49,3.89,NZ,1674330843
544,tunceli,39.1083,39.5471,40.89,57,0,5.14,TR,1674330962
545,manado,1.487,124.8455,74.17,100,40,2.3,ID,1674330962
546,gat,31.61,34.7642,59.4,74,2,2.37,IL,1674330962
547,koudougou,12.25,-2.3667,84.22,11,100,7.52,BF,1674330963
548,nizwa,22.9333,57.5333,60.17,64,30,4.54,OM,1674330963
549,minas,-34.3759,-55.2377,81.18,63,100,11.14,UY,1674330964
550,teguise,29.0605,-13.564,62.82,77,40,14.97,ES,1674330964
551,scarborough,54.2797,-0.4044,33.91,88,3,5.01,GB,1674330699
552,sioux lookout,50.1001,-91.917,21.27,86,100,8.05,CA,1674330965
553,san-pedro,4.7485,-6.6363,80.56,80,96,9.15,CI,1674330965
554,povenets,62.8487,34.8262,20.21,95,100,1.86,RU,1674330966
555,pitimbu,-7.4706,-34.8086,84.79,70,1,10.36,BR,1674330966
556,saldanha,-33.0117,17.9442,68.05,89,0,6.69,ZA,1674330966
557,bonavista,48.6499,-53.1147,30.99,95,100,34.29,CA,1674330967
558,inverell,-29.7833,151.1167,63.1,78,76,3.0,AU,1674330967
559,okhotsk,59.3833,143.3,-15.9,78,96,13.6,RU,1674330968
560,concepcion,-36.827,-73.0498,71.4,56,0,13.8,CL,1674330968
561,bengkulu,-3.8004,102.2655,76.08,88,100,4.7,ID,1674330968
562,greve strand,55.5834,12.2999,31.14,92,100,9.22,DK,1674330969
563,cap malheureux,-19.9842,57.6142,76.46,82,99,8.25,MU,1674330969
564,ocho rios,18.4025,-77.1048,80.8,65,8,11.74,JM,1674330970
565,vanimo,-2.6741,141.3028,76.42,91,100,4.03,PG,1674330970
566,ngunguru,-35.6167,174.5,65.93,80,91,3.53,NZ,1674330970
